{
    "config_title":"ground_station_network_config",
    "version-gsndef":"0.0.1",
    "verbose_details":"https://github.mit.edu/star-lab/CIRCINUS/blob/SPRINT-restructuring-1/inputs/nom_sprint/groundstation_network/README.md",

    "network_definition":{
        "version-gsn":"0.0.1",

        "default_gs_ref_model_name":"zhou_original_gs",
        
        "gs_net_params":{
            "num_stations": 17,
            "gs_network_name": "Space Flight Networks 2017",
            "gs_network_version": "1",
            "_comment": "setting this to 20 deg to be conservative",
            "elevation_cutoff_deg":20,
            "stations": [
                {"id": "G0", "name": "Prudhoe Bay","name_pretty": "Prudhoe Bay 0","latitude_deg":70.36621,"longitude_deg":-148.745529,"height_m":0,"comm_type":"X_band_BBSDR_SFN_fixed_rate"},
                {"id": "G1", "name": "Fairbanks","name_pretty": "Fairbanks 1","latitude_deg":64.836531,"longitude_deg":-147.651745,"height_m":0,"comm_type":"X_band_BBSDR_SFN_fixed_rate"},
                {"id": "G2", "name": "Seattle","name_pretty": "Seattle 2","latitude_deg":47.606,"longitude_deg":-122.33,"height_m":0,"comm_type":"X_band_BBSDR_SFN_fixed_rate"},
                {"id": "G3", "name": "New Mexico","name_pretty": "New Mexico 3","latitude_deg":32.7872,"longitude_deg":-106.3257,"height_m":0,"comm_type":"X_band_BBSDR_SFN_fixed_rate"},
                {"id": "G4", "name": "New England","name_pretty": "New England 4","latitude_deg":42.94235,"longitude_deg":-71.636095,"height_m":0,"comm_type":"X_band_BBSDR_SFN_fixed_rate"},
                {"id": "G5", "name": "Hawaii","name_pretty": "Hawaii 5","latitude_deg":19.8968,"longitude_deg":-155.5828,"height_m":0,"comm_type":"X_band_BBSDR_SFN_fixed_rate"},
                {"id": "G6", "name": "Florida","name_pretty": "Florida 6","latitude_deg":26.7542,"longitude_deg":-80.9337,"height_m":0,"comm_type":"X_band_BBSDR_SFN_fixed_rate"},
                {"id": "G7", "name": "Argentina","name_pretty": "Argentina 7","latitude_deg":-53.1638,"longitude_deg":-70.9171,"height_m":0,"comm_type":"X_band_BBSDR_SFN_fixed_rate"},
                {"id": "G8", "name": "Brazil","name_pretty": "Brazil 8","latitude_deg":-18.415921,"longitude_deg":-45.633627,"height_m":0,"comm_type":"X_band_BBSDR_SFN_fixed_rate"},
                {"id": "G9", "name": "Munich","name_pretty": "Munich 9","latitude_deg":48.1351,"longitude_deg":11.582,"height_m":0,"comm_type":"X_band_BBSDR_SFN_fixed_rate"},
                {"id": "G10", "name": "Norway","name_pretty": "Norway 10","latitude_deg":67.316,"longitude_deg":14.777,"height_m":0,"comm_type":"X_band_BBSDR_SFN_fixed_rate"},
                {"id": "G11", "name": "South Africa","name_pretty": "South Africa 11","latitude_deg":-25.89,"longitude_deg":27.6853,"height_m":0,"comm_type":"X_band_BBSDR_SFN_fixed_rate"},
                {"id": "G12", "name": "Dubai","name_pretty": "Dubai 12","latitude_deg":25.2048,"longitude_deg":55.2708,"height_m":0,"comm_type":"X_band_BBSDR_SFN_fixed_rate"},
                {"id": "G13", "name": "Singapore","name_pretty": "Singapore 13","latitude_deg":1.3521,"longitude_deg":103.8198,"height_m":0,"comm_type":"X_band_BBSDR_SFN_fixed_rate"},
                {"id": "G14", "name": "Guam","name_pretty": "Guam 14","latitude_deg":13.4443,"longitude_deg":144.7937,"height_m":0,"comm_type":"X_band_BBSDR_SFN_fixed_rate"},
                {"id": "G15", "name": "Japan","name_pretty": "Japan 15","latitude_deg":37.516871,"longitude_deg":139.666454,"height_m":0,"comm_type":"X_band_BBSDR_SFN_fixed_rate"},
                {"id": "G16", "name": "New Zealand","name_pretty": "New Zealand 16","latitude_deg":-46.512945,"longitude_deg":168.375952,"height_m":0,"comm_type":"X_band_BBSDR_SFN_fixed_rate"}
            ]
        },
        "sim_gs_network_params": {
            "_comments":"TODO: Reevaluate the location of these params. (Should they go in the sim file? Or GP? I think they are describing the behavior of the network, so this should be ok)",
            "time_epsilon_s": 1,
            "gsn_ps_params" : {
                "_comments": [
                    "replan_release_wait_time_s simulates the amount of time required to actually run the global planner in real life. from the perspective of this code the global planner will run instantaneously. After it runs, the sim will wait this amount of time before making those plans available",
                    "release_first_plans_immediately = True means that global planner will immediately make its first set of global plans available (they won't be queued up for release at a later time)",
                    "6300 seconds is 105 minutes, about the length of an orbit at 1000 km altitude",
                    "replan release time is conservative here"
                ],
                "replan_interval_s": 6300,                  
                "replan_release_wait_time_s": 60,
                "release_first_plans_immediately": true
            }
        }


    }


}